FrameCnt,focal_length,datetime,OSD.latitude,OSD.longitude,OSD.xSpeed [MPH],OSD.ySpeed [MPH],OSD.zSpeed [MPH],OSD.directionOfTravel,OSD.pitch,OSD.roll,OSD.yaw,GIMBAL.pitch,GIMBAL.roll,GIMBAL.yaw,HOME.longitude,HOME.latitude,adjusted height,Drone type
1,250.0,2023-10-15 17:16:32,33.2626921801628,126.179314341583,0.0,0.0,0.0,1.1,-10.4,-1.4,-19.2,-90.0,0.0,-15.5,126.181393527349,33.2632048905884,129.48208000000002,Mavic 2
2,250.0,2023-10-15 17:16:32,33.2626921683232,126.1793143497795,0.0,0.0,0.0,1.1,-10.45,-1.4,-19.2,-90.0,0.0,-15.5,126.181393527349,33.2632048905884,129.48208000000002,Mavic 2
3,250.0,2023-10-15 17:16:32,33.2626921564836,126.179314357976,0.0,0.0,0.0,1.1,-10.5,-1.4,-19.2,-90.0,0.0,-15.5,126.181393527349,33.2632048905884,129.48208000000002,Mavic 2
4,250.0,2023-10-15 17:16:32,33.2626921138429,126.17931435426033,0.0,0.0,0.0,1.1,-10.533333333333333,-1.3666666666666667,-19.233333333333334,-90.0,0.0,-15.5,126.181393527349,33.2632048905884,129.48208000000002,Mavic 2
5,250.0,2023-10-15 17:16:32,33.2626920712022,126.17931435054467,0.0,0.0,0.0,1.1,-10.566666666666666,-1.3333333333333333,-19.266666666666666,-90.0,0.0,-15.5,126.181393527349,33.2632048905884,129.48208000000002,Mavic 2
6,250.0,2023-10-15 17:16:32,33.2626920285615,126.179314346829,0.0,0.0,0.0,1.1,-10.6,-1.3,-19.3,-90.0,0.0,-15.5,126.181393527349,33.2632048905884,129.48208000000002,Mavic 2
7,250.0,2023-10-15 17:16:33,33.2626920195262,126.17931435196567,0.0,0.0,0.0,1.1,-10.6,-1.3,-19.266666666666666,-90.0,0.0,-15.5,126.181393527349,33.2632048905884,129.48208000000002,Mavic 2
8,250.0,2023-10-15 17:16:33,33.2626920104909,126.17931435710233,0.0,0.0,0.0,1.1,-10.6,-1.3,-19.233333333333334,-90.0,0.0,-15.5,126.181393527349,33.2632048905884,129.48208000000002,Mavic 2
9,250.0,2023-10-15 17:16:33,33.2626920014556,126.179314362239,0.0,0.0,0.0,1.1,-10.6,-1.3,-19.2,-90.0,0.0,-15.5,126.181393527349,33.2632048905884,129.48208000000002,Mavic 2
10,250.0,2023-10-15 17:16:33,33.262691977205364,126.17931435540834,0.0,0.0,0.0,1.1,-10.6,-1.3333333333333333,-19.2,-90.0,0.0,-15.5,126.181393527349,33.2632048905884,129.48208000000002,Mavic 2
11,250.0,2023-10-15 17:16:33,33.26269195295514,126.17931434857766,0.0,0.0,0.0,1.1,-10.6,-1.3666666666666667,-19.2,-90.0,0.0,-15.5,126.181393527349,33.2632048905884,129.48208000000002,Mavic 2
12,250.0,2023-10-15 17:16:33,33.2626919287049,126.179314341747,0.0,0.0,0.0,1.1,-10.6,-1.4,-19.2,-90.0,0.0,-15.5,126.181393527349,33.2632048905884,129.48208000000002,Mavic 2
13,250.0,2023-10-15 17:16:33,33.26269192117737,126.17931434753933,0.0,0.0,0.0,1.1,-10.6,-1.4,-19.233333333333334,-89.96666666666667,0.0,-15.5,126.181393527349,33.2632048905884,129.48208000000002,Mavic 2
14,250.0,2023-10-15 17:16:33,33.26269191364983,126.17931435333168,0.0,0.0,0.0,1.1,-10.6,-1.4,-19.266666666666666,-89.93333333333334,0.0,-15.5,126.181393527349,33.2632048905884,129.48208000000002,Mavic 2
15,250.0,2023-10-15 17:16:33,33.2626919061223,126.179314359124,0.0,0.0,0.0,1.1,-10.6,-1.4,-19.3,-89.9,0.0,-15.5,126.181393527349,33.2632048905884,129.48208000000002,Mavic 2
16,250.0,2023-10-15 17:16:33,33.2626919321659,126.17931440262001,0.0,0.0,0.0,1.1,-10.6,-1.3666666666666667,-19.3,-89.93333333333334,0.0,-15.5,126.181393527349,33.2632048905884,129.48208000000002,Mavic 2
17,250.0,2023-10-15 17:16:33,33.2626919582095,126.179314446116,0.0,0.0,0.0,1.1,-10.6,-1.3333333333333333,-19.3,-89.96666666666667,0.0,-15.5,126.181393527349,33.2632048905884,129.48208000000002,Mavic 2
18,250.0,2023-10-15 17:16:33,33.2626919842531,126.179314489612,0.0,0.0,0.0,1.1,-10.6,-1.3,-19.3,-90.0,0.0,-15.5,126.181393527349,33.2632048905884,129.48208000000002,Mavic 2
19,250.0,2023-10-15 17:16:33,33.2626919807121,126.179314499448,0.0,0.0,0.0,1.1,-10.633333333333333,-1.3333333333333333,-19.266666666666666,-90.0,0.0,-15.5,126.181393527349,33.2632048905884,129.48208000000002,Mavic 2
20,250.0,2023-10-15 17:16:33,33.2626919771711,126.179314509284,0.0,0.0,0.0,1.1,-10.666666666666666,-1.3666666666666667,-19.233333333333334,-90.0,0.0,-15.5,126.181393527349,33.2632048905884,129.48208000000002,Mavic 2
21,250.0,2023-10-15 17:16:33,33.2626919736301,126.17931451912,0.0,0.0,0.0,1.1,-10.7,-1.4,-19.2,-90.0,0.0,-15.5,126.181393527349,33.2632048905884,129.48208000000002,Mavic 2
22,250.0,2023-10-15 17:16:33,33.26269198823963,126.17931450338267,0.0,0.0,0.0,1.1,-10.666666666666666,-1.4333333333333333,-19.2,-90.0,0.0,-15.5,126.181393527349,33.2632048905884,129.48208000000002,Mavic 2
23,250.0,2023-10-15 17:16:33,33.262692002849164,126.17931448764533,0.0,0.0,0.0,1.1,-10.633333333333333,-1.4666666666666666,-19.2,-90.0,0.0,-15.5,126.181393527349,33.2632048905884,129.48208000000002,Mavic 2
24,250.0,2023-10-15 17:16:33,33.2626920174587,126.179314471908,0.0,0.0,0.0,1.1,-10.6,-1.5,-19.2,-90.0,0.0,-15.5,126.181393527349,33.2632048905884,129.48208000000002,Mavic 2
25,250.0,2023-10-15 17:16:33,33.26269201828113,126.17931447841033,0.0,0.0,0.0,1.1,-10.533333333333333,-1.4666666666666666,-19.233333333333334,-90.0,0.0,-15.5,126.181393527349,33.2632048905884,129.48208000000002,Mavic 2
26,250.0,2023-10-15 17:16:33,33.26269201910357,126.17931448491267,0.0,0.0,0.0,1.1,-10.466666666666667,-1.4333333333333333,-19.266666666666666,-90.0,0.0,-15.5,126.181393527349,33.2632048905884,129.48208000000002,Mavic 2
27,250.0,2023-10-15 17:16:33,33.262692019926,126.179314491415,0.0,0.0,0.0,1.1,-10.4,-1.4,-19.3,-90.0,0.0,-15.5,126.181393527349,33.2632048905884,129.48208000000002,Mavic 2
28,250.0,2023-10-15 17:16:33,33.26269202923547,126.179314526824,0.0,0.0,0.0,1.1,-10.366666666666667,-1.4,-19.3,-90.0,0.0,-15.5,126.181393527349,33.2632048905884,129.48208000000002,Mavic 2
29,250.0,2023-10-15 17:16:33,33.262692038544934,126.179314562233,0.0,0.0,0.0,1.1,-10.333333333333334,-1.4,-19.3,-90.0,0.0,-15.5,126.181393527349,33.2632048905884,129.48208000000002,Mavic 2
30,250.0,2023-10-15 17:16:33,33.2626920478544,126.179314597642,0.0,0.0,0.0,1.1,-10.3,-1.4,-19.3,-90.0,0.0,-15.5,126.181393527349,33.2632048905884,129.48208000000002,Mavic 2
31,250.0,2023-10-15 17:16:33,33.262692050572966,126.179314607915,0.0,0.0,0.0,1.1,-10.333333333333334,-1.4333333333333333,-19.3,-90.0,0.0,-15.5,126.181393527349,33.2632048905884,129.48208000000002,Mavic 2
32,250.0,2023-10-15 17:16:33,33.26269205329154,126.179314618188,0.0,0.0,0.0,1.1,-10.366666666666667,-1.4666666666666666,-19.3,-90.0,0.0,-15.5,126.181393527349,33.2632048905884,129.48208000000002,Mavic 2
33,250.0,2023-10-15 17:16:33,33.2626920560101,126.179314628461,0.0,0.0,0.0,1.1,-10.4,-1.5,-19.3,-90.0,0.0,-15.5,126.181393527349,33.2632048905884,129.48208000000002,Mavic 2
34,250.0,2023-10-15 17:16:33,33.26269200716693,126.179314612341,0.0,0.0,0.0,1.1,-10.466666666666667,-1.5666666666666667,-19.266666666666666,-89.96666666666667,0.0,-15.5,126.181393527349,33.2632048905884,129.48208000000002,Mavic 2
35,250.0,2023-10-15 17:16:33,33.26269195832377,126.179314596221,0.0,0.0,0.0,1.1,-10.533333333333333,-1.6333333333333333,-19.233333333333334,-89.93333333333334,0.0,-15.5,126.181393527349,33.2632048905884,129.48208000000002,Mavic 2
36,250.0,2023-10-15 17:16:33,33.2626919094806,126.179314580101,0.0,0.0,0.0,1.1,-10.6,-1.7,-19.2,-89.9,0.0,-15.5,126.181393527349,33.2632048905884,129.48208000000002,Mavic 2
37,250.0,2023-10-15 17:16:34,33.2626919051971,126.17931458911734,0.0,0.0,0.0,1.1,-10.633333333333333,-1.6666666666666667,-19.2,-89.93333333333334,0.0,-15.5,126.181393527349,33.2632048905884,129.48208000000002,Mavic 2
38,250.0,2023-10-15 17:16:34,33.2626919009136,126.17931459813367,0.0,0.0,0.0,1.1,-10.666666666666666,-1.6333333333333333,-19.2,-89.96666666666667,0.0,-15.5,126.181393527349,33.2632048905884,129.48208000000002,Mavic 2
39,250.0,2023-10-15 17:16:34,33.2626918966301,126.17931460715,0.0,0.0,0.0,1.1,-10.7,-1.6,-19.2,-90.0,0.0,-15.5,126.181393527349,33.2632048905884,129.48208000000002,Mavic 2
40,250.0,2023-10-15 17:16:34,33.262691945553236,126.17931459359833,0.0,0.0,0.0,1.1,-10.7,-1.6,-19.2,-90.0,0.0,-15.5,126.181393527349,33.2632048905884,129.48208000000002,Mavic 2
41,250.0,2023-10-15 17:16:34,33.26269199447636,126.17931458004666,0.0,0.0,0.0,1.1,-10.7,-1.6,-19.2,-90.0,0.0,-15.5,126.181393527349,33.2632048905884,129.48208000000002,Mavic 2
42,250.0,2023-10-15 17:16:34,33.2626920433995,126.179314566495,0.0,0.0,0.0,1.1,-10.7,-1.6,-19.2,-90.0,0.0,-15.5,126.181393527349,33.2632048905884,129.48208000000002,Mavic 2
43,250.0,2023-10-15 17:16:34,33.262692043136795,126.179314571577,0.0,0.0,0.0,1.1,-10.733333333333333,-1.5666666666666667,-19.2,-90.0,0.0,-15.5,126.181393527349,33.2632048905884,129.48208000000002,Mavic 2
44,250.0,2023-10-15 17:16:34,33.2626920428741,126.179314576659,0.0,0.0,0.0,1.1,-10.766666666666667,-1.5333333333333334,-19.2,-90.0,0.0,-15.5,126.181393527349,33.2632048905884,129.48208000000002,Mavic 2
45,250.0,2023-10-15 17:16:34,33.2626920426114,126.179314581741,0.0,0.0,0.0,1.1,-10.8,-1.5,-19.2,-90.0,0.0,-15.5,126.181393527349,33.2632048905884,129.48208000000002,Mavic 2
46,250.0,2023-10-15 17:16:34,33.26269203979,126.17931466332332,0.0,0.0,0.0,1.1,-10.8,-1.5,-19.2,-90.0,0.0,-15.5,126.181393527349,33.2632048905884,129.48208000000002,Mavic 2
47,250.0,2023-10-15 17:16:34,33.2626920369686,126.17931474490567,0.0,0.0,0.0,1.1,-10.8,-1.5,-19.2,-90.0,0.0,-15.5,126.181393527349,33.2632048905884,129.48208000000002,Mavic 2
48,250.0,2023-10-15 17:16:34,33.2626920341472,126.179314826488,0.0,0.0,0.0,1.1,-10.8,-1.5,-19.2,-90.0,0.0,-15.5,126.181393527349,33.2632048905884,129.48208000000002,Mavic 2
49,250.0,2023-10-15 17:16:34,33.2626920346098,126.17931484279899,0.0,0.0,0.0,1.1,-10.8,-1.5,-19.2,-90.0,0.0,-15.5,126.181393527349,33.2632048905884,129.48208000000002,Mavic 2
50,250.0,2023-10-15 17:16:34,33.2626920350724,126.17931485911,0.0,0.0,0.0,1.1,-10.8,-1.5,-19.2,-90.0,0.0,-15.5,126.181393527349,33.2632048905884,129.48208000000002,Mavic 2
51,250.0,2023-10-15 17:16:34,33.2626920360319,126.179314832335,0.0,0.0,0.0,1.1,-11.033333333333333,-1.5,-19.2,-90.0,0.0,-15.5,126.181393527349,33.2632048905884,129.48208000000002,Mavic 2
52,250.0,2023-10-15 17:16:34,33.262692036991396,126.17931480556,0.0,0.0,0.0,1.1,-11.266666666666667,-1.5,-19.2,-90.0,0.0,-15.5,126.181393527349,33.2632048905884,129.48208000000002,Mavic 2
53,250.0,2023-10-15 17:16:34,33.2626920379509,126.179314778785,0.0,0.0,0.0,1.1,-11.5,-1.5,-19.2,-90.0,0.0,-15.5,126.181393527349,33.2632048905884,129.48208000000002,Mavic 2
54,250.0,2023-10-15 17:16:34,33.2626920424286,126.17931478419466,0.0,0.0,0.0,1.1,-12.0,-1.4666666666666666,-19.2,-90.0,0.0,-15.5,126.181393527349,33.2632048905884,129.52272000000002,Mavic 2
55,250.0,2023-10-15 17:16:34,33.2626920469063,126.17931478960433,0.0,0.0,0.0,1.1,-12.5,-1.4333333333333333,-19.2,-90.0,0.0,-15.5,126.181393527349,33.2632048905884,129.56336000000002,Mavic 2
56,250.0,2023-10-15 17:16:34,33.262692051384,126.179314795014,0.0,0.0,0.0,1.1,-13.0,-1.4,-19.2,-90.0,0.0,-15.5,126.181393527349,33.2632048905884,129.604,Mavic 2
57,250.0,2023-10-15 17:16:34,33.262692065765066,126.17931482200767,0.0,0.0,0.0,1.1,-13.7,-1.4333333333333333,-19.166666666666668,-90.0,0.0,-15.5,126.181393527349,33.2632048905884,129.604,Mavic 2
58,250.0,2023-10-15 17:16:34,33.26269208014614,126.17931484900133,0.0,0.0,0.0,1.1,-14.4,-1.4666666666666666,-19.133333333333333,-90.0,0.0,-15.5,126.181393527349,33.2632048905884,129.604,Mavic 2
59,250.0,2023-10-15 17:16:34,33.2626920945272,126.179314875995,0.0,0.0,0.0,1.1,-15.1,-1.5,-19.1,-90.0,0.0,-15.5,126.181393527349,33.2632048905884,129.604,Mavic 2
60,250.0,2023-10-15 17:16:34,33.26269212458017,126.17931487370001,0.07456466666666667,0.0,0.0,1.1,-15.766666666666667,-1.5333333333333334,-19.1,-90.0,0.0,-15.5,126.181393527349,33.2632048905884,129.56336000000002,Mavic 2
61,250.0,2023-10-15 17:16:34,33.262692154633136,126.179314871405,0.14912933333333334,0.0,0.0,1.1,-16.433333333333334,-1.5666666666666667,-19.1,-90.0,0.0,-15.5,126.181393527349,33.2632048905884,129.52272000000002,Mavic 2
62,250.0,2023-10-15 17:16:34,33.2626921846861,126.17931486911,0.223694,0.0,0.0,1.1,-17.1,-1.6,-19.1,-90.0,0.0,-15.5,126.181393527349,33.2632048905884,129.48208000000002,Mavic 2
63,250.0,2023-10-15 17:16:34,33.2626922822925,126.17931487790767,0.29825866666666667,0.0,0.0,120.23333333333332,-17.566666666666666,-1.6,-19.1,-90.0,0.0,-15.5,126.181393527349,33.2632048905884,129.48208000000002,Mavic 2
64,250.0,2023-10-15 17:16:34,33.2626923798989,126.17931488670533,0.37282333333333334,0.0,0.0,239.36666666666665,-18.033333333333335,-1.6,-19.1,-90.0,0.0,-15.5,126.181393527349,33.2632048905884,129.48208000000002,Mavic 2
65,250.0,2023-10-15 17:16:34,33.2626924775053,126.179314895503,0.447388,0.0,0.0,358.5,-18.5,-1.6,-19.1,-90.0,0.0,-15.5,126.181393527349,33.2632048905884,129.48208000000002,Mavic 2
66,250.0,2023-10-15 17:16:34,33.262692569663095,126.17931486736167,0.5219526666666666,-0.07456466666666667,0.0,240.56666666666666,-18.733333333333334,-1.5666666666666667,-19.1,-90.0,0.0,-15.5,126.181393527349,33.2632048905884,129.48208000000002,Mavic 2
67,250.0,2023-10-15 17:16:35,33.2626926618209,126.17931483922032,0.5965173333333333,-0.14912933333333334,0.0,122.63333333333333,-18.966666666666665,-1.5333333333333334,-19.1,-90.0,0.0,-15.5,126.181393527349,33.2632048905884,129.48208000000002,Mavic 2
68,250.0,2023-10-15 17:16:35,33.2626927539787,126.179314811079,0.671082,-0.223694,0.0,4.7,-19.2,-1.5,-19.1,-90.0,0.0,-15.5,126.181393527349,33.2632048905884,129.48208000000002,Mavic 2
69,250.0,2023-10-15 17:16:35,33.262692865817634,126.17931475200966,0.7456466666666667,-0.223694,0.0,5.833333333333333,-19.3,-1.5,-19.133333333333333,-90.0,0.0,-15.5,126.181393527349,33.2632048905884,129.48208000000002,Mavic 2
70,250.0,2023-10-15 17:16:35,33.26269297765656,126.17931469294034,0.8202113333333333,-0.223694,0.0,6.966666666666667,-19.4,-1.5,-19.166666666666668,-90.0,0.0,-15.5,126.181393527349,33.2632048905884,129.48208000000002,Mavic 2
71,250.0,2023-10-15 17:16:35,33.2626930894955,126.179314633871,0.894776,-0.223694,0.0,8.1,-19.5,-1.5,-19.2,-90.0,0.0,-15.5,126.181393527349,33.2632048905884,129.48208000000002,Mavic 2
72,250.0,2023-10-15 17:16:35,33.26269325540923,126.17931456868133,0.9693406666666667,-0.29825866666666667,0.0,7.433333333333333,-19.566666666666666,-1.4333333333333333,-19.2,-90.0,0.0,-15.5,126.181393527349,33.2632048905884,129.52272000000002,Mavic 2
73,250.0,2023-10-15 17:16:35,33.262693421322965,126.17931450349167,1.0439053333333335,-0.37282333333333334,0.0,6.766666666666667,-19.633333333333333,-1.3666666666666667,-19.2,-90.0,0.0,-15.5,126.181393527349,33.2632048905884,129.56336000000002,Mavic 2
74,250.0,2023-10-15 17:16:35,33.2626935872367,126.179314438302,1.11847,-0.447388,0.0,6.1,-19.7,-1.3,-19.2,-90.0,0.0,-15.5,126.181393527349,33.2632048905884,129.604,Mavic 2
75,250.0,2023-10-15 17:16:35,33.26269374761046,126.17931435628266,1.2675993333333333,-0.447388,0.0,6.7,-19.866666666666667,-1.2333333333333334,-19.233333333333334,-90.0,0.0,-15.5,126.181393527349,33.2632048905884,129.604,Mavic 2
76,250.0,2023-10-15 17:16:35,33.262693907984236,126.17931427426333,1.4167286666666667,-0.447388,0.0,7.3,-20.03333333333333,-1.1666666666666667,-19.266666666666666,-90.0,0.0,-15.5,126.181393527349,33.2632048905884,129.604,Mavic 2
77,250.0,2023-10-15 17:16:35,33.262694068358,126.179314192244,1.565858,-0.447388,0.0,7.9,-20.2,-1.1,-19.3,-90.0,0.0,-15.5,126.181393527349,33.2632048905884,129.604,Mavic 2
78,250.0,2023-10-15 17:16:35,33.26269430837037,126.179314092957,1.6404226666666666,-0.5219526666666666,0.0,7.4,-20.53333333333333,-1.0666666666666667,-19.266666666666666,-90.0,0.0,-15.5,126.181393527349,33.2632048905884,129.604,Mavic 2
79,250.0,2023-10-15 17:16:35,33.26269454838273,126.17931399367,1.7149873333333334,-0.5965173333333333,0.0,6.9,-20.866666666666667,-1.0333333333333334,-19.233333333333334,-90.0,0.0,-15.5,126.181393527349,33.2632048905884,129.604,Mavic 2
80,250.0,2023-10-15 17:16:35,33.2626947883951,126.179313894383,1.789552,-0.671082,0.0,6.4,-21.2,-1.0,-19.2,-90.0,0.0,-15.5,126.181393527349,33.2632048905884,129.604,Mavic 2
81,250.0,2023-10-15 17:16:35,33.26269501276987,126.17931373575367,1.8641166666666666,-0.671082,0.0,7.9,-21.433333333333334,-1.0,-19.2,-90.0,0.0,-15.5,126.181393527349,33.2632048905884,129.604,Mavic 2
82,250.0,2023-10-15 17:16:35,33.262695237144634,126.17931357712433,1.9386813333333335,-0.671082,0.0,9.4,-21.666666666666664,-1.0,-19.2,-90.0,0.0,-15.5,126.181393527349,33.2632048905884,129.604,Mavic 2
83,250.0,2023-10-15 17:16:35,33.2626954615194,126.179313418495,2.013246,-0.671082,0.0,10.9,-21.9,-1.0,-19.2,-90.0,0.0,-15.5,126.181393527349,33.2632048905884,129.604,Mavic 2
84,250.0,2023-10-15 17:16:35,33.262695784642865,126.17931327888134,2.1623753333333333,-0.7456466666666667,0.0,9.5,-22.099999999999998,-1.0333333333333334,-19.166666666666668,-90.0,0.0,-15.5,126.181393527349,33.2632048905884,129.604,Mavic 2
85,250.0,2023-10-15 17:16:35,33.26269610776633,126.17931313926766,2.311504666666667,-0.8202113333333333,0.0,8.1,-22.3,-1.0666666666666667,-19.133333333333333,-90.0,0.0,-15.5,126.181393527349,33.2632048905884,129.604,Mavic 2
86,250.0,2023-10-15 17:16:35,33.2626964308898,126.179312999654,2.460634,-0.894776,0.0,6.7,-22.5,-1.1,-19.1,-90.0,0.0,-15.5,126.181393527349,33.2632048905884,129.604,Mavic 2
87,250.0,2023-10-15 17:16:35,33.26269678422613,126.179312863592,2.6097633333333334,-0.894776,0.0,6.433333333333334,-22.6,-1.1333333333333333,-19.133333333333333,-90.0,0.0,-15.5,126.181393527349,33.2632048905884,129.604,Mavic 2
88,250.0,2023-10-15 17:16:35,33.26269713756247,126.17931272753,2.7588926666666667,-0.894776,0.0,6.166666666666667,-22.7,-1.1666666666666667,-19.166666666666668,-90.0,0.0,-15.5,126.181393527349,33.2632048905884,129.604,Mavic 2
89,250.0,2023-10-15 17:16:35,33.2626974908988,126.179312591468,2.908022,-0.894776,0.0,5.9,-22.8,-1.2,-19.2,-90.0,0.0,-15.5,126.181393527349,33.2632048905884,129.604,Mavic 2
90,250.0,2023-10-15 17:16:35,33.26269791045213,126.17931241475166,2.9825866666666667,-0.9693406666666667,0.0,6.1000000000000005,-22.866666666666667,-1.1666666666666667,-19.166666666666668,-90.0,0.0,-15.5,126.181393527349,33.2632048905884,129.604,Mavic 2
91,250.0,2023-10-15 17:16:35,33.26269833000547,126.17931223803534,3.057151333333333,-1.0439053333333335,0.0,6.3,-22.933333333333334,-1.1333333333333333,-19.133333333333333,-90.0,0.0,-15.5,126.181393527349,33.2632048905884,129.604,Mavic 2
92,250.0,2023-10-15 17:16:35,33.2626987495588,126.179312061319,3.131716,-1.11847,0.0,6.5,-23.0,-1.1,-19.1,-90.0,0.0,-15.5,126.181393527349,33.2632048905884,129.604,Mavic 2
93,250.0,2023-10-15 17:16:35,33.262699203197634,126.17931183728133,3.280845333333333,-1.1930346666666667,0.0,6.866666666666666,-23.0,-1.1,-19.1,-90.0,0.0,-15.5,126.181393527349,33.2632048905884,129.604,Mavic 2
94,250.0,2023-10-15 17:16:35,33.26269965683647,126.17931161324367,3.429974666666667,-1.2675993333333333,0.0,7.233333333333333,-23.0,-1.1,-19.1,-90.0,0.0,-15.5,126.181393527349,33.2632048905884,129.604,Mavic 2
95,250.0,2023-10-15 17:16:35,33.2627001104753,126.179311389206,3.579104,-1.342164,0.0,7.6,-23.0,-1.1,-19.1,-90.0,0.0,-15.5,126.181393527349,33.2632048905884,129.604,Mavic 2
96,250.0,2023-10-15 17:16:35,33.26270088232505,126.1793110586415,3.690951,-1.342164,0.0,7.1,-23.0,-1.05,-19.15,-90.0,0.0,-15.5,126.181393527349,33.2632048905884,129.604,Mavic 2
97,250.0,2023-10-15 17:16:36,33.2627016541748,126.179310728077,3.802798,-1.342164,0.0,6.6,-23.0,-1.0,-19.2,-90.0,0.0,-15.5,126.181393527349,33.2632048905884,129.604,Mavic 2
98,250.0,2023-10-15 17:16:36,33.262702169141434,126.17931048343867,3.9519273333333333,-1.4167286666666665,0.0,6.833333333333333,-22.933333333333334,-1.0,-19.233333333333334,-90.0,0.0,-15.5,126.181393527349,33.2632048905884,129.604,Mavic 2
99,250.0,2023-10-15 17:16:36,33.26270268410806,126.17931023880033,4.101056666666667,-1.4912933333333334,0.0,7.066666666666666,-22.866666666666667,-1.0,-19.266666666666666,-90.0,0.0,-15.5,126.181393527349,33.2632048905884,129.604,Mavic 2
100,250.0,2023-10-15 17:16:36,33.2627031990747,126.179309994162,4.250186,-1.565858,0.0,7.3,-22.8,-1.0,-19.3,-90.0,0.0,-15.5,126.181393527349,33.2632048905884,129.604,Mavic 2
101,250.0,2023-10-15 17:16:36,33.26270380064817,126.17930973537133,4.324750666666667,-1.565858,0.0,7.066666666666666,-22.733333333333334,-1.0,-19.3,-90.0,0.0,-15.5,126.181393527349,33.2632048905884,129.604,Mavic 2
102,250.0,2023-10-15 17:16:36,33.26270440222163,126.17930947658067,4.399315333333334,-1.565858,0.0,6.833333333333333,-22.666666666666668,-1.0,-19.3,-90.0,0.0,-15.5,126.181393527349,33.2632048905884,129.604,Mavic 2
103,250.0,2023-10-15 17:16:36,33.2627050037951,126.17930921779,4.47388,-1.565858,0.0,6.6,-22.6,-1.0,-19.3,-90.0,0.0,-15.5,126.181393527349,33.2632048905884,129.604,Mavic 2
104,250.0,2023-10-15 17:16:36,33.262705619074865,126.179308907416,4.548444666666667,-1.6404226666666666,0.0,7.0,-22.166666666666668,-0.9666666666666667,-19.233333333333334,-90.0,0.0,-15.5,126.181393527349,33.2632048905884,129.604,Mavic 2
105,250.0,2023-10-15 17:16:36,33.26270623435463,126.17930859704201,4.623009333333334,-1.7149873333333334,0.0,7.3999999999999995,-21.733333333333334,-0.9333333333333333,-19.166666666666668,-90.0,0.0,-15.5,126.181393527349,33.2632048905884,129.604,Mavic 2
106,250.0,2023-10-15 17:16:36,33.2627068496344,126.179308286668,4.697574,-1.789552,0.0,7.8,-21.3,-0.9,-19.1,-90.0,0.0,-15.5,126.181393527349,33.2632048905884,129.604,Mavic 2
107,250.0,2023-10-15 17:16:36,33.26270752598003,126.179307990392,4.772138666666667,-1.789552,0.0,7.466666666666667,-20.133333333333333,-0.9,-19.133333333333333,-90.0,0.0,-15.5,126.181393527349,33.2632048905884,129.604,Mavic 2
108,250.0,2023-10-15 17:16:36,33.26270820232566,126.179307694116,4.846703333333334,-1.789552,0.0,7.133333333333333,-18.96666666666667,-0.9,-19.166666666666668,-90.0,0.0,-15.5,126.181393527349,33.2632048905884,129.604,Mavic 2
109,250.0,2023-10-15 17:16:36,33.2627088786713,126.17930739784,4.921268,-1.789552,0.0,6.8,-17.8,-0.9,-19.2,-90.0,0.0,-15.5,126.181393527349,33.2632048905884,129.604,Mavic 2
110,250.0,2023-10-15 17:16:36,33.26270957718827,126.179307085335,4.995832666666667,-1.789552,-0.07456466666666667,6.833333333333333,-16.4,-0.8333333333333334,-19.233333333333334,-90.0,0.0,-15.5,126.181393527349,33.2632048905884,129.604,Mavic 2
111,250.0,2023-10-15 17:16:36,33.26271027570523,126.17930677283,5.070397333333333,-1.789552,-0.14912933333333334,6.866666666666667,-15.0,-0.7666666666666666,-19.266666666666666,-90.0,0.0,-15.5,126.181393527349,33.2632048905884,129.604,Mavic 2
112,250.0,2023-10-15 17:16:36,33.2627109742222,126.179306460325,5.144962,-1.789552,-0.223694,6.9,-13.6,-0.7,-19.3,-90.0,0.0,-15.5,126.181393527349,33.2632048905884,129.604,Mavic 2
113,250.0,2023-10-15 17:16:36,33.2627116709116,126.17930615492367,5.070397333333333,-1.789552,-0.223694,6.866666666666667,-9.3,-0.7,-19.366666666666667,-90.0,0.0,-15.5,126.181393527349,33.2632048905884,129.63448000000002,Mavic 2
114,250.0,2023-10-15 17:16:36,33.262712367601004,126.17930584952232,4.995832666666667,-1.789552,-0.223694,6.833333333333333,-5.0,-0.7,-19.433333333333334,-90.0,0.0,-15.5,126.181393527349,33.2632048905884,129.66496,Mavic 2
115,250.0,2023-10-15 17:16:36,33.2627130642904,126.179305544121,4.921268,-1.789552,-0.223694,6.8,-0.7,-0.7,-19.5,-90.0,0.0,-15.5,126.181393527349,33.2632048905884,129.69544000000002,Mavic 2
116,250.0,2023-10-15 17:16:36,33.26271376299024,126.17930519571499,4.772138666666667,-1.7149873333333334,-0.29825866666666667,7.1,1.9666666666666666,-0.7999999999999999,-19.566666666666666,-90.0,0.0,-15.5,126.181393527349,33.2632048905884,129.69544000000002,Mavic 2
117,250.0,2023-10-15 17:16:36,33.26271446169007,126.179304847309,4.623009333333334,-1.6404226666666666,-0.37282333333333334,7.4,4.633333333333333,-0.9,-19.633333333333333,-90.0,0.0,-15.5,126.181393527349,33.2632048905884,129.69544000000002,Mavic 2
118,250.0,2023-10-15 17:16:36,33.2627151603899,126.179304498903,4.47388,-1.565858,-0.447388,7.7,7.3,-1.0,-19.7,-90.0,0.0,-15.5,126.181393527349,33.2632048905884,129.69544000000002,Mavic 2
119,250.0,2023-10-15 17:16:36,33.26271573031094,126.17930424366399,4.250186,-1.4912933333333334,-0.447388,7.433333333333334,7.833333333333333,-0.9333333333333333,-19.666666666666668,-90.0,0.0,-15.5,126.181393527349,33.2632048905884,129.69544000000002,Mavic 2
120,250.0,2023-10-15 17:16:36,33.262716300231965,126.179303988425,4.026492,-1.4167286666666665,-0.447388,7.166666666666667,8.366666666666667,-0.8666666666666667,-19.633333333333333,-90.0,0.0,-15.5,126.181393527349,33.2632048905884,129.69544000000002,Mavic 2
121,250.0,2023-10-15 17:16:36,33.262716870153,126.179303733186,3.802798,-1.342164,-0.447388,6.9,8.9,-0.8,-19.6,-90.0,0.0,-15.5,126.181393527349,33.2632048905884,129.69544000000002,Mavic 2
122,250.0,2023-10-15 17:16:36,33.2627173535933,126.179303569857,3.579104,-1.2675993333333333,-0.37282333333333334,6.333333333333334,8.9,-0.7666666666666667,-19.566666666666666,-90.0,0.0,-15.5,126.181393527349,33.2632048905884,129.69544000000002,Mavic 2
123,250.0,2023-10-15 17:16:36,33.2627178370336,126.179303406528,3.35541,-1.1930346666666667,-0.29825866666666667,5.766666666666667,8.9,-0.7333333333333333,-19.533333333333335,-90.0,0.0,-15.5,126.181393527349,33.2632048905884,129.69544000000002,Mavic 2
124,250.0,2023-10-15 17:16:36,33.2627183204739,126.179303243199,3.131716,-1.11847,-0.223694,5.2,8.9,-0.7,-19.5,-90.0,0.0,-15.5,126.181393527349,33.2632048905884,129.69544000000002,Mavic 2
125,250.0,2023-10-15 17:16:36,33.2627187220253,126.17930306560834,2.9825866666666667,-1.0439053333333335,-0.14912933333333334,5.733333333333333,8.666666666666666,-0.7,-19.5,-90.0,0.0,-15.5,126.181393527349,33.2632048905884,129.69544000000002,Mavic 2
126,250.0,2023-10-15 17:16:36,33.2627191235767,126.17930288801766,2.833457333333333,-0.9693406666666667,-0.07456466666666667,6.266666666666667,8.433333333333334,-0.7,-19.5,-90.0,0.0,-15.5,126.181393527349,33.2632048905884,129.69544000000002,Mavic 2
127,250.0,2023-10-15 17:16:37,33.2627195251281,126.179302710427,2.684328,-0.894776,0.0,6.8,8.2,-0.7,-19.5,-90.0,0.0,-15.5,126.181393527349,33.2632048905884,129.69544000000002,Mavic 2
128,250.0,2023-10-15 17:16:37,33.2627199283929,126.17930248857499,2.5351986666666666,-0.8202113333333333,0.0,7.366666666666666,7.766666666666667,-0.7666666666666666,-19.533333333333335,-90.0,0.0,-15.5,126.181393527349,33.2632048905884,129.66496,Mavic 2
129,250.0,2023-10-15 17:16:37,33.262720331657704,126.179302266723,2.3860693333333334,-0.7456466666666667,0.0,7.933333333333334,7.333333333333333,-0.8333333333333334,-19.566666666666666,-90.0,0.0,-15.5,126.181393527349,33.2632048905884,129.63448000000002,Mavic 2
130,250.0,2023-10-15 17:16:37,33.2627207349225,126.179302044871,2.23694,-0.671082,0.0,8.5,6.9,-0.9,-19.6,-90.0,0.0,-15.5,126.181393527349,33.2632048905884,129.604,Mavic 2
131,250.0,2023-10-15 17:16:37,33.262720992183134,126.17930192607633,2.013246,-0.5965173333333333,0.0,8.033333333333333,6.2,-0.9666666666666667,-19.6,-89.96666666666667,0.0,-15.5,126.181393527349,33.2632048905884,129.604,Mavic 2
132,250.0,2023-10-15 17:16:37,33.26272124944377,126.17930180728166,1.789552,-0.5219526666666666,0.0,7.566666666666666,5.5,-1.0333333333333334,-19.6,-89.93333333333334,0.0,-15.5,126.181393527349,33.2632048905884,129.604,Mavic 2
133,250.0,2023-10-15 17:16:37,33.2627215067044,126.179301688487,1.565858,-0.447388,0.0,7.1,4.8,-1.1,-19.6,-89.9,0.0,-15.5,126.181393527349,33.2632048905884,129.604,Mavic 2
134,250.0,2023-10-15 17:16:37,33.26272182223193,126.179301565485,1.4912933333333334,-0.447388,0.0,6.733333333333333,3.9666666666666663,-1.1,-19.633333333333333,-89.93333333333334,0.0,-15.5,126.181393527349,33.2632048905884,129.604,Mavic 2
135,250.0,2023-10-15 17:16:37,33.26272213775947,126.179301442483,1.4167286666666665,-0.447388,0.0,6.366666666666666,3.133333333333333,-1.1,-19.666666666666668,-89.96666666666667,0.0,-15.5,126.181393527349,33.2632048905884,129.604,Mavic 2
136,250.0,2023-10-15 17:16:37,33.262722453287,126.179301319481,1.342164,-0.447388,0.0,6.0,2.3,-1.1,-19.7,-90.0,0.0,-15.5,126.181393527349,33.2632048905884,129.604,Mavic 2
137,250.0,2023-10-15 17:16:37,33.26272260119873,126.17930124724266,1.1930346666666667,-0.37282333333333334,0.0,6.5,1.5333333333333332,-1.0333333333333334,-19.7,-90.0,0.0,-15.5,126.181393527349,33.2632048905884,129.56336000000002,Mavic 2
138,250.0,2023-10-15 17:16:37,33.262722749110466,126.17930117500434,1.0439053333333332,-0.29825866666666667,0.0,7.0,0.7666666666666666,-0.9666666666666667,-19.7,-90.0,0.0,-15.5,126.181393527349,33.2632048905884,129.52272000000002,Mavic 2
139,250.0,2023-10-15 17:16:37,33.2627228970222,126.179301102766,0.894776,-0.223694,0.0,7.5,0.0,-0.9,-19.7,-90.0,0.0,-15.5,126.181393527349,33.2632048905884,129.48208000000002,Mavic 2
140,250.0,2023-10-15 17:16:37,33.26272307047497,126.17930108839467,0.8202113333333333,-0.223694,0.0,5.4,-0.7999999999999999,-0.8666666666666667,-19.666666666666668,-89.96666666666667,0.0,-15.5,126.181393527349,33.2632048905884,129.48208000000002,Mavic 2
141,250.0,2023-10-15 17:16:37,33.26272324392773,126.17930107402334,0.7456466666666667,-0.223694,0.0,3.3,-1.5999999999999999,-0.8333333333333334,-19.633333333333333,-89.93333333333334,0.0,-15.5,126.181393527349,33.2632048905884,129.48208000000002,Mavic 2
142,250.0,2023-10-15 17:16:37,33.2627234173805,126.179301059652,0.671082,-0.223694,0.0,1.2,-2.4,-0.8,-19.6,-89.9,0.0,-15.5,126.181393527349,33.2632048905884,129.48208000000002,Mavic 2
143,250.0,2023-10-15 17:16:37,33.2627235318696,126.1793010070305,0.5592349999999999,-0.111847,0.0,4.1499999999999995,-3.45,-0.8,-19.6,-89.9,0.0,-15.5,126.181393527349,33.2632048905884,129.48208000000002,Mavic 2
144,250.0,2023-10-15 17:16:37,33.2627236463587,126.179300954409,0.447388,0.0,0.0,7.1,-4.5,-0.8,-19.6,-89.9,0.0,-15.5,126.181393527349,33.2632048905884,129.48208000000002,Mavic 2
145,250.0,2023-10-15 17:16:37,33.2627237389963,126.179300899383,0.37282333333333334,0.0,0.0,7.766666666666667,-5.0,-0.8,-19.533333333333335,-89.93333333333334,0.0,-15.5,126.181393527349,33.2632048905884,129.48208000000002,Mavic 2
146,250.0,2023-10-15 17:16:37,33.2627238316339,126.179300844357,0.29825866666666667,0.0,0.0,8.433333333333334,-5.5,-0.8,-19.466666666666665,-89.96666666666667,0.0,-15.5,126.181393527349,33.2632048905884,129.48208000000002,Mavic 2
147,250.0,2023-10-15 17:16:37,33.2627239242715,126.179300789331,0.223694,0.0,0.0,9.1,-6.0,-0.8,-19.4,-90.0,0.0,-15.5,126.181393527349,33.2632048905884,129.48208000000002,Mavic 2
148,250.0,2023-10-15 17:16:37,33.26272396371387,126.17930077271966,0.223694,0.0,0.0,8.233333333333333,-6.3,-0.8333333333333334,-19.4,-90.0,0.0,-15.5,126.181393527349,33.2632048905884,129.48208000000002,Mavic 2
149,250.0,2023-10-15 17:16:37,33.26272400315623,126.17930075610833,0.223694,0.0,0.0,7.366666666666666,-6.6000000000000005,-0.8666666666666667,-19.4,-90.0,0.0,-15.5,126.181393527349,33.2632048905884,129.48208000000002,Mavic 2
150,250.0,2023-10-15 17:16:37,33.2627240425986,126.179300739497,0.223694,0.0,0.0,6.5,-6.9,-0.9,-19.4,-90.0,0.0,-15.5,126.181393527349,33.2632048905884,129.48208000000002,Mavic 2
151,250.0,2023-10-15 17:16:37,33.262724055951665,126.17930077261066,0.14912933333333334,0.0,0.0,9.543396226415094,-7.133333333333334,-0.9333333333333333,-19.366666666666667,-90.0,0.0,-15.5,126.181393527349,33.2632048905884,129.48208000000002,Mavic 2
152,250.0,2023-10-15 17:16:37,33.26272406930473,126.17930080572434,0.07456466666666667,0.0,0.0,12.586792452830188,-7.366666666666666,-0.9666666666666667,-19.333333333333332,-90.0,0.0,-15.5,126.181393527349,33.2632048905884,129.48208000000002,Mavic 2
153,250.0,2023-10-15 17:16:37,33.2627240826578,126.179300838838,0.0,0.0,0.0,15.630188679245284,-7.6,-1.0,-19.3,-90.0,0.0,-15.5,126.181393527349,33.2632048905884,129.48208000000002,Mavic 2
154,250.0,2023-10-15 17:16:37,33.26272409875233,126.17930083665233,0.0,0.0,0.0,18.673584905660377,-7.833333333333333,-1.0333333333333334,-19.3,-90.0,0.0,-15.5,126.181393527349,33.2632048905884,129.48208000000002,Mavic 2
155,250.0,2023-10-15 17:16:37,33.26272411484687,126.17930083446667,0.0,0.0,0.0,21.716981132075475,-8.066666666666666,-1.0666666666666667,-19.3,-90.0,0.0,-15.5,126.181393527349,33.2632048905884,129.48208000000002,Mavic 2
156,250.0,2023-10-15 17:16:37,33.2627241309414,126.179300832281,0.0,0.0,0.0,24.76037735849057,-8.3,-1.1,-19.3,-90.0,0.0,-15.5,126.181393527349,33.2632048905884,129.48208000000002,Mavic 2
157,250.0,2023-10-15 17:16:38,33.26272413127267,126.17930084473967,0.0,0.0,0.0,27.803773584905663,-8.366666666666667,-1.1666666666666667,-19.266666666666666,-90.0,0.0,-15.5,126.181393527349,33.2632048905884,129.48208000000002,Mavic 2
158,250.0,2023-10-15 17:16:38,33.26272413160393,126.17930085719833,0.0,0.0,0.0,30.847169811320757,-8.433333333333334,-1.2333333333333334,-19.233333333333334,-90.0,0.0,-15.5,126.181393527349,33.2632048905884,129.48208000000002,Mavic 2
159,250.0,2023-10-15 17:16:38,33.2627241319352,126.179300869657,0.0,0.0,0.0,33.89056603773585,-8.5,-1.3,-19.2,-90.0,0.0,-15.5,126.181393527349,33.2632048905884,129.48208000000002,Mavic 2
160,250.0,2023-10-15 17:16:38,33.262724135087836,126.17930087402833,0.0,0.0,-0.14912933333333334,36.93396226415095,-8.233333333333334,-1.3,-19.266666666666666,-90.0,0.0,-15.5,126.181393527349,33.2632048905884,129.52272000000002,Mavic 2
161,250.0,2023-10-15 17:16:38,33.262724138240465,126.17930087839967,0.0,0.0,-0.29825866666666667,39.97735849056604,-7.966666666666667,-1.3,-19.333333333333332,-90.0,0.0,-15.5,126.181393527349,33.2632048905884,129.56336000000002,Mavic 2
162,250.0,2023-10-15 17:16:38,33.2627241413931,126.179300882771,0.0,0.0,-0.447388,43.02075471698114,-7.7,-1.3,-19.4,-90.0,0.0,-15.5,126.181393527349,33.2632048905884,129.604,Mavic 2
163,250.0,2023-10-15 17:16:38,33.26272412026123,126.17930095244134,0.0,0.0,-0.7456466666666666,46.06415094339623,-7.6000000000000005,-1.3333333333333333,-19.4,-90.0,0.0,-15.5,126.181393527349,33.2632048905884,129.604,Mavic 2
164,250.0,2023-10-15 17:16:38,33.262724099129365,126.17930102211166,0.0,0.0,-1.0439053333333332,49.107547169811326,-7.5,-1.3666666666666667,-19.4,-90.0,0.0,-15.5,126.181393527349,33.2632048905884,129.604,Mavic 2
165,250.0,2023-10-15 17:16:38,33.2627240779975,126.179301091782,0.0,0.0,-1.342164,52.15094339622642,-7.4,-1.4,-19.4,-90.0,0.0,-15.5,126.181393527349,33.2632048905884,129.604,Mavic 2
166,250.0,2023-10-15 17:16:38,33.2627240675458,126.17930110396733,0.0,0.0,-1.7149873333333334,55.194339622641515,-7.666666666666667,-1.4,-19.333333333333332,-89.96666666666667,0.0,-15.5,126.181393527349,33.2632048905884,129.63448000000002,Mavic 2
167,250.0,2023-10-15 17:16:38,33.2627240570941,126.17930111615266,0.0,0.0,-2.087810666666667,58.23773584905661,-7.933333333333333,-1.4,-19.266666666666666,-89.93333333333334,0.0,-15.5,126.181393527349,33.2632048905884,129.66496,Mavic 2
168,250.0,2023-10-15 17:16:38,33.2627240466424,126.179301128338,0.0,0.0,-2.460634,61.2811320754717,-8.2,-1.4,-19.2,-89.9,0.0,-15.5,126.181393527349,33.2632048905884,129.69544000000002,Mavic 2
169,250.0,2023-10-15 17:16:38,33.262724015949765,126.17930116462134,0.0,0.0,-2.8334573333333335,64.3245283018868,-8.5,-1.4666666666666666,-19.2,-89.9,0.0,-15.5,126.181393527349,33.2632048905884,129.72592000000003,Mavic 2
170,250.0,2023-10-15 17:16:38,33.26272398525713,126.17930120090466,0.0,0.0,-3.206280666666667,67.3679245283019,-8.799999999999999,-1.5333333333333334,-19.2,-89.9,0.0,-15.5,126.181393527349,33.2632048905884,129.7564,Mavic 2
171,250.0,2023-10-15 17:16:38,33.2627239545645,126.179301237188,0.0,0.0,-3.579104,70.411320754717,-9.1,-1.6,-19.2,-89.9,0.0,-15.5,126.181393527349,33.2632048905884,129.78688000000002,Mavic 2
172,250.0,2023-10-15 17:16:38,33.26272394110863,126.179301243144,0.0,0.0,-3.877362666666667,73.45471698113208,-9.233333333333333,-1.5666666666666667,-19.166666666666668,-89.9,0.0,-15.5,126.181393527349,33.2632048905884,129.85800000000003,Mavic 2
173,250.0,2023-10-15 17:16:38,33.262723927652765,126.1793012491,0.0,0.0,-4.175621333333334,76.49811320754718,-9.366666666666667,-1.5333333333333334,-19.133333333333333,-89.9,0.0,-15.5,126.181393527349,33.2632048905884,129.92912,Mavic 2
174,250.0,2023-10-15 17:16:38,33.2627239141969,126.179301255056,0.0,0.0,-4.47388,79.54150943396228,-9.5,-1.5,-19.1,-89.9,0.0,-15.5,126.181393527349,33.2632048905884,130.00024000000002,Mavic 2
175,250.0,2023-10-15 17:16:38,33.2627238791751,126.17930131133866,0.0,0.0,-4.846703333333333,82.58490566037737,-9.533333333333333,-1.5,-19.1,-89.9,0.0,-15.5,126.181393527349,33.2632048905884,130.10184,Mavic 2
176,250.0,2023-10-15 17:16:38,33.2627238441533,126.17930136762133,0.0,0.0,-5.219526666666667,85.62830188679246,-9.566666666666666,-1.5,-19.1,-89.9,0.0,-15.5,126.181393527349,33.2632048905884,130.20344000000003,Mavic 2
177,250.0,2023-10-15 17:16:38,33.2627238091315,126.179301423904,0.0,0.0,-5.59235,88.67169811320755,-9.6,-1.5,-19.1,-89.9,0.0,-15.5,126.181393527349,33.2632048905884,130.30504000000002,Mavic 2
178,250.0,2023-10-15 17:16:38,33.2627238071668,126.179301418713,0.0,0.0,-5.965173333333333,91.71509433962265,-9.533333333333333,-1.4,-19.066666666666666,-89.9,0.0,-15.5,126.181393527349,33.2632048905884,130.40664,Mavic 2
179,250.0,2023-10-15 17:16:38,33.2627238052021,126.179301413522,0.0,0.0,-6.337996666666666,94.75849056603775,-9.466666666666667,-1.3,-19.033333333333335,-89.9,0.0,-15.5,126.181393527349,33.2632048905884,130.50824000000003,Mavic 2
180,250.0,2023-10-15 17:16:38,33.2627238032374,126.179301408331,0.0,0.0,-6.71082,97.80188679245283,-9.4,-1.2,-19.0,-89.9,0.0,-15.5,126.181393527349,33.2632048905884,130.60984000000002,Mavic 2
181,250.0,2023-10-15 17:16:38,33.26272371000583,126.17930139838566,0.0,0.0,-7.0090786666666665,100.84528301886793,-9.266666666666667,-1.1666666666666667,-18.966666666666665,-89.9,0.0,-15.5,126.181393527349,33.2632048905884,130.70128000000003,Mavic 2
182,250.0,2023-10-15 17:16:38,33.26272361677427,126.17930138844034,0.0,0.0,-7.307337333333334,103.88867924528303,-9.133333333333333,-1.1333333333333333,-18.933333333333334,-89.9,0.0,-15.5,126.181393527349,33.2632048905884,130.79272,Mavic 2
183,250.0,2023-10-15 17:16:38,33.2627235235427,126.179301378495,0.0,0.0,-7.605596,106.93207547169813,-9.0,-1.1,-18.9,-89.9,0.0,-15.5,126.181393527349,33.2632048905884,130.88416,Mavic 2
184,250.0,2023-10-15 17:16:38,33.262723520504295,126.179301367621,0.0,0.0,-7.82929,109.97547169811322,-9.0,-1.1,-18.933333333333334,-89.9,0.0,-15.5,126.181393527349,33.2632048905884,130.98576,Mavic 2
185,250.0,2023-10-15 17:16:38,33.2627235174659,126.179301356747,0.0,0.0,-8.052984,113.01886792452831,-9.0,-1.1,-18.966666666666665,-89.9,0.0,-15.5,126.181393527349,33.2632048905884,131.08736000000002,Mavic 2
186,250.0,2023-10-15 17:16:38,33.2627235144275,126.179301345873,0.0,0.0,-8.276678,116.0622641509434,-9.0,-1.1,-19.0,-89.9,0.0,-15.5,126.181393527349,33.2632048905884,131.18896,Mavic 2
187,250.0,2023-10-15 17:16:39,33.2627234079,126.179301231778,0.0,0.0,-8.425807333333333,119.1056603773585,-9.133333333333333,-1.1333333333333333,-19.0,-89.9,0.0,-15.5,126.181393527349,33.2632048905884,131.32104,Mavic 2
188,250.0,2023-10-15 17:16:39,33.2627233013725,126.179301117683,0.0,0.0,-8.574936666666668,122.1490566037736,-9.266666666666667,-1.1666666666666667,-19.0,-89.9,0.0,-15.5,126.181393527349,33.2632048905884,131.45312,Mavic 2
189,250.0,2023-10-15 17:16:39,33.262723194845,126.179301003588,0.0,0.0,-8.724066,125.19245283018869,-9.4,-1.2,-19.0,-89.9,0.0,-15.5,126.181393527349,33.2632048905884,131.58520000000001,Mavic 2
190,250.0,2023-10-15 17:16:39,33.262723165117606,126.1793009767855,0.0,0.0,-8.835913000000001,128.2358490566038,-9.600000000000001,-1.2,-19.05,-89.9,0.0,-15.5,126.181393527349,33.2632048905884,131.84428,Mavic 2
191,250.0,2023-10-15 17:16:39,33.2627231353902,126.179300949983,0.0,0.0,-8.94776,131.2792452830189,-9.8,-1.2,-19.1,-89.9,0.0,-15.5,126.181393527349,33.2632048905884,132.10336,Mavic 2
192,250.0,2023-10-15 17:16:39,33.26272310149923,126.17930099479034,0.0,0.0,-8.94776,134.322641509434,-9.933333333333334,-1.4,-19.066666666666666,-89.93333333333334,0.0,-15.5,126.181393527349,33.2632048905884,132.23544,Mavic 2
193,250.0,2023-10-15 17:16:39,33.26272306760827,126.17930103959766,0.0,0.0,-8.94776,137.36603773584906,-10.066666666666666,-1.6,-19.033333333333335,-89.96666666666667,0.0,-15.5,126.181393527349,33.2632048905884,132.36752,Mavic 2
194,250.0,2023-10-15 17:16:39,33.2627230337173,126.179301084405,0.0,0.0,-8.94776,140.40943396226416,-10.2,-1.8,-19.0,-90.0,0.0,-15.5,126.181393527349,33.2632048905884,132.49960000000002,Mavic 2
195,250.0,2023-10-15 17:16:39,33.26272300477233,126.17930107894067,0.0,0.0,-8.798630666666668,143.45283018867926,-10.466666666666667,-3.6,-18.833333333333332,-90.0,0.0,-15.5,126.181393527349,33.2632048905884,132.63168,Mavic 2
196,250.0,2023-10-15 17:16:39,33.262722975827366,126.17930107347632,0.0,0.0,-8.649501333333333,146.49622641509436,-10.733333333333333,-5.4,-18.666666666666668,-90.0,0.0,-15.5,126.181393527349,33.2632048905884,132.76376,Mavic 2
197,250.0,2023-10-15 17:16:39,33.2627229468824,126.179301068012,0.0,0.0,-8.500372,149.53962264150945,-11.0,-7.2,-18.5,-90.0,0.0,-15.5,126.181393527349,33.2632048905884,132.89584,Mavic 2
198,250.0,2023-10-15 17:16:39,33.26272290925627,126.17930119166999,0.0,0.0,-8.276678,152.58301886792455,-10.966666666666667,-10.7,-18.233333333333334,-90.0,0.0,-15.5,126.181393527349,33.2632048905884,133.02792,Mavic 2
199,250.0,2023-10-15 17:16:39,33.26272287163013,126.179301315328,0.0,0.0,-8.052984,155.62641509433965,-10.933333333333334,-14.2,-17.966666666666665,-90.0,0.0,-15.5,126.181393527349,33.2632048905884,133.16,Mavic 2
200,250.0,2023-10-15 17:16:39,33.262722834004,126.179301438986,0.0,0.0,-7.82929,158.66981132075475,-10.9,-17.7,-17.7,-90.0,0.0,-15.5,126.181393527349,33.2632048905884,133.29208,Mavic 2
201,250.0,2023-10-15 17:16:39,33.262722766884636,126.17930138609134,-0.07456466666666667,-0.07456466666666667,-7.605596,161.71320754716982,-10.233333333333334,-19.166666666666668,-17.7,-90.0,0.0,-15.5,126.181393527349,33.2632048905884,133.39368,Mavic 2
202,250.0,2023-10-15 17:16:39,33.26272269976526,126.17930133319666,-0.14912933333333334,-0.14912933333333334,-7.381902,164.7566037735849,-9.566666666666666,-20.633333333333333,-17.7,-90.0,0.0,-15.5,126.181393527349,33.2632048905884,133.49528,Mavic 2
203,250.0,2023-10-15 17:16:39,33.2627226326459,126.179301280302,-0.223694,-0.223694,-7.158208,167.8,-8.9,-22.1,-17.7,-90.0,0.0,-15.5,126.181393527349,33.2632048905884,133.59688,Mavic 2
204,250.0,2023-10-15 17:16:39,33.26272250592323,126.179301242325,-0.3728233333333333,-0.3728233333333333,-6.859949333333334,170.3,-8.433333333333334,-22.633333333333333,-17.8,-90.0,0.0,-15.5,126.181393527349,33.2632048905884,133.72896,Mavic 2
205,250.0,2023-10-15 17:16:39,33.26272237920057,126.17930120434801,-0.5219526666666666,-0.5219526666666666,-6.561690666666666,172.8,-7.966666666666667,-23.166666666666668,-17.9,-90.0,0.0,-15.5,126.181393527349,33.2632048905884,133.86104,Mavic 2
206,250.0,2023-10-15 17:16:39,33.2627222524779,126.179301166371,-0.671082,-0.671082,-6.263432,175.3,-7.5,-23.7,-18.0,-90.0,0.0,-15.5,126.181393527349,33.2632048905884,133.99312,Mavic 2
207,250.0,2023-10-15 17:16:39,33.26272210213323,126.17930097342534,-0.7456466666666667,-0.8202113333333333,-5.965173333333333,170.43333333333334,-7.133333333333334,-23.833333333333332,-18.033333333333335,-90.0,0.0,-15.5,126.181393527349,33.2632048905884,134.06424,Mavic 2
208,250.0,2023-10-15 17:16:39,33.26272195178857,126.17930078047966,-0.8202113333333333,-0.9693406666666666,-5.666914666666666,165.56666666666666,-6.766666666666667,-23.96666666666667,-18.066666666666666,-90.0,0.0,-15.5,126.181393527349,33.2632048905884,134.13536,Mavic 2
209,250.0,2023-10-15 17:16:39,33.2627218014439,126.179300587534,-0.894776,-1.11847,-5.368656,160.7,-6.4,-24.1,-18.1,-90.0,0.0,-15.5,126.181393527349,33.2632048905884,134.20648,Mavic 2
210,250.0,2023-10-15 17:16:39,33.2627216102633,126.17930042048967,-1.0439053333333332,-1.2675993333333333,-5.070397333333333,162.66666666666666,-6.2,-24.1,-18.133333333333333,-90.0,0.0,-15.5,126.181393527349,33.2632048905884,134.30808,Mavic 2
211,250.0,2023-10-15 17:16:39,33.2627214190827,126.17930025344533,-1.1930346666666667,-1.4167286666666667,-4.772138666666667,164.63333333333333,-6.0,-24.1,-18.166666666666668,-90.0,0.0,-15.5,126.181393527349,33.2632048905884,134.40968,Mavic 2
212,250.0,2023-10-15 17:16:39,33.2627212279021,126.179300086401,-1.342164,-1.565858,-4.47388,166.6,-5.8,-24.1,-18.2,-90.0,0.0,-15.5,126.181393527349,33.2632048905884,134.51128,Mavic 2
213,250.0,2023-10-15 17:16:39,33.2627209804422,126.17929975422433,-1.4912933333333334,-1.7149873333333334,-4.250186,164.36666666666667,-5.6,-24.133333333333333,-18.233333333333334,-90.0,0.0,-15.5,126.181393527349,33.2632048905884,134.54176,Mavic 2
214,250.0,2023-10-15 17:16:39,33.2627207329823,126.17929942204766,-1.6404226666666666,-1.8641166666666666,-4.026492,162.13333333333333,-5.4,-24.166666666666668,-18.266666666666666,-90.0,0.0,-15.5,126.181393527349,33.2632048905884,134.57224,Mavic 2
215,250.0,2023-10-15 17:16:39,33.2627204855224,126.179299089871,-1.789552,-2.013246,-3.802798,159.9,-5.2,-24.2,-18.3,-90.0,0.0,-15.5,126.181393527349,33.2632048905884,134.60272,Mavic 2
216,250.0,2023-10-15 17:16:39,33.2627201409815,126.17929876091833,-1.9386813333333335,-2.23694,-3.653668666666667,161.73333333333335,-5.133333333333334,-24.2,-18.333333333333332,-90.0,0.0,-15.5,126.181393527349,33.2632048905884,134.66368,Mavic 2
217,250.0,2023-10-15 17:16:40,33.2627197964406,126.17929843196566,-2.087810666666667,-2.4606339999999998,-3.5045393333333332,163.56666666666666,-5.066666666666666,-24.2,-18.366666666666667,-90.0,0.0,-15.5,126.181393527349,33.2632048905884,134.72464,Mavic 2
218,250.0,2023-10-15 17:16:40,33.2627194518997,126.179298103013,-2.23694,-2.684328,-3.35541,165.4,-5.0,-24.2,-18.4,-90.0,0.0,-15.5,126.181393527349,33.2632048905884,134.7856,Mavic 2
219,250.0,2023-10-15 17:16:40,33.2627190851304,126.17929759865532,-2.3860693333333334,-2.908022,-3.206280666666667,163.4,-5.033333333333333,-24.099999999999998,-18.4,-90.0,0.0,-15.5,126.181393527349,33.2632048905884,134.85672,Mavic 2
220,250.0,2023-10-15 17:16:40,33.2627187183611,126.17929709429767,-2.5351986666666666,-3.131716,-3.057151333333333,161.4,-5.066666666666666,-24.0,-18.4,-90.0,0.0,-15.5,126.181393527349,33.2632048905884,134.92784,Mavic 2
221,250.0,2023-10-15 17:16:40,33.2627183515918,126.17929658994,-2.684328,-3.35541,-2.908022,159.4,-5.1,-23.9,-18.4,-90.0,0.0,-15.5,126.181393527349,33.2632048905884,134.99896,Mavic 2
222,250.0,2023-10-15 17:16:40,33.262717968648,126.17929604361633,-2.833457333333333,-3.579104,-2.833457333333333,159.16666666666666,-5.2,-23.933333333333334,-18.366666666666667,-90.0,0.0,-15.5,126.181393527349,33.2632048905884,135.02944,Mavic 2
223,250.0,2023-10-15 17:16:40,33.2627175857042,126.17929549729266,-2.9825866666666667,-3.802798,-2.7588926666666667,158.93333333333334,-5.3,-23.966666666666665,-18.333333333333332,-90.0,0.0,-15.5,126.181393527349,33.2632048905884,135.05992,Mavic 2
224,250.0,2023-10-15 17:16:40,33.2627172027604,126.179294950969,-3.131716,-4.026492,-2.684328,158.7,-5.4,-24.0,-18.3,-90.0,0.0,-15.5,126.181393527349,33.2632048905884,135.0904,Mavic 2
225,250.0,2023-10-15 17:16:40,33.262716724677496,126.17929424940367,-3.280845333333333,-4.250186,-2.684328,158.53333333333333,-5.5,-24.0,-18.233333333333334,-90.0,0.0,-15.5,126.181393527349,33.2632048905884,135.12088,Mavic 2
226,250.0,2023-10-15 17:16:40,33.2627162465946,126.17929354783833,-3.429974666666667,-4.47388,-2.684328,158.36666666666665,-5.6000000000000005,-24.0,-18.166666666666668,-90.0,0.0,-15.5,126.181393527349,33.2632048905884,135.15136,Mavic 2
227,250.0,2023-10-15 17:16:40,33.2627157685117,126.179292846273,-3.579104,-4.697574,-2.684328,158.2,-5.7,-24.0,-18.1,-90.0,0.0,-15.5,126.181393527349,33.2632048905884,135.18184,Mavic 2
228,250.0,2023-10-15 17:16:40,33.26271514533806,126.17929198143267,-3.7282333333333333,-4.921268,-2.6097633333333334,158.53333333333333,-5.766666666666667,-24.033333333333335,-18.133333333333333,-90.0,0.0,-15.5,126.181393527349,33.2632048905884,135.25296,Mavic 2
229,250.0,2023-10-15 17:16:40,33.26271452216444,126.17929111659232,-3.877362666666667,-5.144962,-2.5351986666666666,158.86666666666665,-5.833333333333334,-24.066666666666666,-18.166666666666668,-90.0,0.0,-15.5,126.181393527349,33.2632048905884,135.32408,Mavic 2
230,250.0,2023-10-15 17:16:40,33.2627138989908,126.179290251752,-4.026492,-5.368656,-2.460634,159.2,-5.9,-24.1,-18.2,-90.0,0.0,-15.5,126.181393527349,33.2632048905884,135.3952,Mavic 2
231,250.0,2023-10-15 17:16:40,33.2627133004109,126.17928932986567,-4.175621333333334,-5.59235,-2.460634,158.53333333333333,-6.033333333333333,-24.033333333333335,-18.166666666666668,-90.0,0.0,-15.5,126.181393527349,33.2632048905884,135.3952,Mavic 2
232,250.0,2023-10-15 17:16:40,33.262712701831,126.17928840797933,-4.324750666666667,-5.816044,-2.460634,157.86666666666665,-6.166666666666667,-23.966666666666665,-18.133333333333333,-90.0,0.0,-15.5,126.181393527349,33.2632048905884,135.3952,Mavic 2
233,250.0,2023-10-15 17:16:40,33.2627121032511,126.179287486093,-4.47388,-6.039738,-2.460634,157.2,-6.3,-23.9,-18.1,-90.0,0.0,-15.5,126.181393527349,33.2632048905884,135.3952,Mavic 2
234,250.0,2023-10-15 17:16:40,33.26271134743826,126.179286446668,-4.623009333333334,-6.263432,-2.460634,157.93333333333334,-6.3999999999999995,-23.866666666666667,-18.066666666666666,-90.0,0.0,-15.5,126.181393527349,33.2632048905884,135.46632,Mavic 2
235,250.0,2023-10-15 17:16:40,33.262710591625435,126.179285407243,-4.772138666666667,-6.487126,-2.460634,158.66666666666666,-6.5,-23.833333333333332,-18.033333333333335,-90.0,0.0,-15.5,126.181393527349,33.2632048905884,135.53744,Mavic 2
236,250.0,2023-10-15 17:16:40,33.2627098358126,126.179284367818,-4.921268,-6.71082,-2.460634,159.4,-6.6,-23.8,-18.0,-90.0,0.0,-15.5,126.181393527349,33.2632048905884,135.60856,Mavic 2
237,250.0,2023-10-15 17:16:40,33.262708760691396,126.179282658521,-5.144962,-7.046361,-2.460634,157.95,-6.85,-23.8,-17.95,-90.0,0.0,-15.5,126.181393527349,33.2632048905884,135.65428,Mavic 2
238,250.0,2023-10-15 17:16:40,33.2627076855702,126.179280949224,-5.368656,-7.381902,-2.460634,156.5,-7.1,-23.8,-17.9,-90.0,0.0,-15.5,126.181393527349,33.2632048905884,135.7,Mavic 2
239,250.0,2023-10-15 17:16:40,33.262706908853296,126.17927966734533,-5.517785333333333,-7.605596,-2.460634,156.23333333333332,-7.2,-23.833333333333332,-17.866666666666667,-90.0,0.0,-15.5,126.181393527349,33.2632048905884,135.73048,Mavic 2
240,250.0,2023-10-15 17:16:40,33.2627061321364,126.17927838546667,-5.666914666666666,-7.82929,-2.460634,155.96666666666667,-7.3,-23.866666666666667,-17.833333333333332,-90.0,0.0,-15.5,126.181393527349,33.2632048905884,135.76096,Mavic 2
241,250.0,2023-10-15 17:16:40,33.2627053554195,126.179277103588,-5.816044,-8.052984,-2.460634,155.7,-7.4,-23.9,-17.8,-90.0,0.0,-15.5,126.181393527349,33.2632048905884,135.79144,Mavic 2
242,250.0,2023-10-15 17:16:40,33.26270453947846,126.17927574696,-5.890608666666666,-8.276678,-2.460634,155.66666666666666,-7.5,-23.866666666666667,-17.733333333333334,-89.96666666666667,0.0,-15.5,126.181393527349,33.2632048905884,135.86256,Mavic 2
243,250.0,2023-10-15 17:16:40,33.262703723537435,126.17927439033201,-5.965173333333333,-8.500372,-2.460634,155.63333333333333,-7.6000000000000005,-23.833333333333332,-17.666666666666668,-89.93333333333334,0.0,-15.5,126.181393527349,33.2632048905884,135.93368,Mavic 2
244,250.0,2023-10-15 17:16:40,33.2627029075964,126.179273033704,-6.039738,-8.724066,-2.460634,155.6,-7.7,-23.8,-17.6,-89.9,0.0,-15.5,126.181393527349,33.2632048905884,136.0048,Mavic 2
245,250.0,2023-10-15 17:16:40,33.26270207627923,126.17927154767767,-6.1888673333333335,-8.94776,-2.460634,155.06666666666666,-7.8,-23.733333333333334,-17.6,-89.9,0.0,-15.5,126.181393527349,33.2632048905884,136.03528,Mavic 2
246,250.0,2023-10-15 17:16:40,33.26270124496207,126.17927006165134,-6.337996666666666,-9.171454,-2.460634,154.53333333333333,-7.9,-23.666666666666668,-17.6,-89.9,0.0,-15.5,126.181393527349,33.2632048905884,136.06576,Mavic 2
247,250.0,2023-10-15 17:16:41,33.2627004136449,126.179268575625,-6.487126,-9.395148,-2.460634,154.0,-8.0,-23.6,-17.6,-89.9,0.0,-15.5,126.181393527349,33.2632048905884,136.09624,Mavic 2
248,250.0,2023-10-15 17:16:41,33.2626995157351,126.17926700971333,-6.561690666666666,-9.618842,-2.460634,154.16666666666666,-8.1,-23.566666666666666,-17.566666666666666,-89.9,0.0,-15.5,126.181393527349,33.2632048905884,136.12672,Mavic 2
249,250.0,2023-10-15 17:16:41,33.2626986178253,126.17926544380167,-6.636255333333334,-9.842535999999999,-2.460634,154.33333333333334,-8.200000000000001,-23.533333333333335,-17.533333333333335,-89.9,0.0,-15.5,126.181393527349,33.2632048905884,136.1572,Mavic 2
250,250.0,2023-10-15 17:16:41,33.2626977199155,126.17926387789,-6.71082,-10.06623,-2.460634,154.5,-8.3,-23.5,-17.5,-89.9,0.0,-15.5,126.181393527349,33.2632048905884,136.18768,Mavic 2
251,250.0,2023-10-15 17:16:41,33.2626967632127,126.17926223962866,-6.785384666666666,-10.215359333333332,-2.460634,154.63333333333333,-8.366666666666667,-23.5,-17.466666666666665,-89.93333333333334,0.0,-15.5,126.181393527349,33.2632048905884,136.22832,Mavic 2
252,250.0,2023-10-15 17:16:41,33.262695806509896,126.17926060136733,-6.859949333333334,-10.364488666666666,-2.460634,154.76666666666668,-8.433333333333334,-23.5,-17.433333333333334,-89.96666666666667,0.0,-15.5,126.181393527349,33.2632048905884,136.26896,Mavic 2
253,250.0,2023-10-15 17:16:41,33.2626948498071,126.179258963106,-6.934514,-10.513618,-2.460634,154.9,-8.5,-23.5,-17.4,-90.0,0.0,-15.5,126.181393527349,33.2632048905884,136.3096,Mavic 2
254,250.0,2023-10-15 17:16:41,33.2626938748624,126.179257208564,-7.083643333333334,-10.737312,-2.460634,154.53333333333333,-8.566666666666666,-23.5,-17.366666666666667,-89.96666666666667,0.0,-15.5,126.181393527349,33.2632048905884,136.37056,Mavic 2
255,250.0,2023-10-15 17:16:41,33.262692899917695,126.179255454022,-7.2327726666666665,-10.961006,-2.460634,154.16666666666669,-8.633333333333333,-23.5,-17.333333333333332,-89.93333333333334,0.0,-15.5,126.181393527349,33.2632048905884,136.43152,Mavic 2
256,250.0,2023-10-15 17:16:41,33.262691924973,126.17925369948,-7.381902,-11.1847,-2.460634,153.8,-8.7,-23.5,-17.3,-89.9,0.0,-15.5,126.181393527349,33.2632048905884,136.49248,Mavic 2
257,250.0,2023-10-15 17:16:41,33.2626909211168,126.17925185799866,-7.456466666666667,-11.333829333333332,-2.460634,153.66666666666669,-8.766666666666666,-23.466666666666665,-17.233333333333334,-89.9,0.0,-15.5,126.181393527349,33.2632048905884,136.52296,Mavic 2
258,250.0,2023-10-15 17:16:41,33.2626899172606,126.17925001651733,-7.531031333333334,-11.482958666666667,-2.460634,153.53333333333333,-8.833333333333334,-23.433333333333334,-17.166666666666668,-89.9,0.0,-15.5,126.181393527349,33.2632048905884,136.55344,Mavic 2
259,250.0,2023-10-15 17:16:41,33.2626889134044,126.179248175036,-7.605596,-11.632088,-2.460634,153.4,-8.9,-23.4,-17.1,-89.9,0.0,-15.5,126.181393527349,33.2632048905884,136.58392,Mavic 2
260,250.0,2023-10-15 17:16:41,33.2626878798052,126.179246249025,-7.605596,-11.855782,-2.460634,153.26666666666668,-8.966666666666667,-23.366666666666667,-17.066666666666666,-89.9,0.0,-15.466666666666667,126.181393527349,33.2632048905884,136.62456,Mavic 2
261,250.0,2023-10-15 17:16:41,33.262686846206,126.17924432301399,-7.605596,-12.079476,-2.460634,153.13333333333333,-9.033333333333333,-23.333333333333332,-17.033333333333335,-89.9,0.0,-15.433333333333334,126.181393527349,33.2632048905884,136.6652,Mavic 2
262,250.0,2023-10-15 17:16:41,33.2626858126068,126.179242397003,-7.605596,-12.30317,-2.460634,153.0,-9.1,-23.3,-17.0,-89.9,0.0,-15.4,126.181393527349,33.2632048905884,136.70584,Mavic 2
263,250.0,2023-10-15 17:16:41,33.2626847969175,126.17924044394199,-7.680160666666667,-12.377734666666667,-2.3860693333333334,152.76666666666668,-9.166666666666666,-23.333333333333332,-17.0,-89.93333333333334,0.0,-15.4,126.181393527349,33.2632048905884,136.7668,Mavic 2
264,250.0,2023-10-15 17:16:41,33.2626837812282,126.179238490881,-7.754725333333334,-12.452299333333332,-2.311504666666667,152.53333333333333,-9.233333333333334,-23.366666666666667,-17.0,-89.96666666666667,0.0,-15.4,126.181393527349,33.2632048905884,136.82776,Mavic 2
265,250.0,2023-10-15 17:16:41,33.2626827655389,126.17923653782,-7.82929,-12.526864,-2.23694,152.3,-9.3,-23.4,-17.0,-90.0,0.0,-15.4,126.181393527349,33.2632048905884,136.88872,Mavic 2
266,250.0,2023-10-15 17:16:41,33.262681694221364,126.17923449377767,-7.82929,-12.601428666666667,-2.013246,152.36666666666667,-9.5,-23.5,-16.966666666666665,-89.96666666666667,0.0,-15.4,126.181393527349,33.2632048905884,136.92936,Mavic 2
267,250.0,2023-10-15 17:16:41,33.26268062290384,126.17923244973534,-7.82929,-12.675993333333333,-1.789552,152.43333333333334,-9.700000000000001,-23.599999999999998,-16.933333333333334,-89.93333333333334,0.0,-15.4,126.181393527349,33.2632048905884,136.97,Mavic 2
268,250.0,2023-10-15 17:16:41,33.2626795515863,126.179230405693,-7.82929,-12.750558,-1.565858,152.5,-9.9,-23.7,-16.9,-89.9,0.0,-15.4,126.181393527349,33.2632048905884,137.01064,Mavic 2
269,250.0,2023-10-15 17:16:41,33.26267846688147,126.179228438479,-7.903854666666667,-12.825122666666667,-1.342164,152.9,-10.766666666666667,-23.266666666666666,-16.766666666666666,-89.9,0.0,-15.4,126.181393527349,33.2632048905884,137.04112,Mavic 2
270,250.0,2023-10-15 17:16:41,33.26267738217663,126.17922647126501,-7.978419333333334,-12.899687333333333,-1.11847,153.29999999999998,-11.633333333333333,-22.833333333333332,-16.633333333333333,-89.9,0.0,-15.4,126.181393527349,33.2632048905884,137.0716,Mavic 2
271,250.0,2023-10-15 17:16:41,33.2626762974718,126.179224504051,-8.052984,-12.974252,-0.894776,153.7,-12.5,-22.4,-16.5,-89.9,0.0,-15.4,126.181393527349,33.2632048905884,137.10208,Mavic 2
272,250.0,2023-10-15 17:16:41,33.26267520316047,126.17922239848033,-8.052984,-13.048816666666667,-0.7456466666666667,153.23333333333332,-15.299999999999999,-17.2,-16.666666666666668,-89.93333333333334,0.0,-15.4,126.181393527349,33.2632048905884,137.10208,Mavic 2
273,250.0,2023-10-15 17:16:41,33.26267410884913,126.17922029290968,-8.052984,-13.123381333333333,-0.5965173333333333,152.76666666666668,-18.099999999999998,-12.0,-16.833333333333332,-89.96666666666667,0.0,-15.4,126.181393527349,33.2632048905884,137.10208,Mavic 2
274,250.0,2023-10-15 17:16:41,33.2626730145378,126.179218187339,-8.052984,-13.197946,-0.447388,152.3,-20.9,-6.8,-17.0,-90.0,0.0,-15.4,126.181393527349,33.2632048905884,137.10208,Mavic 2
275,250.0,2023-10-15 17:16:41,33.2626719312371,126.17921596969234,-7.903854666666667,-13.123381333333333,-0.447388,151.8,-19.433333333333334,-0.16666666666666696,-17.833333333333332,-89.96666666666667,0.0,-15.4,126.181393527349,33.2632048905884,137.10208,Mavic 2
276,250.0,2023-10-15 17:16:41,33.262670847936405,126.17921375204567,-7.754725333333334,-13.048816666666667,-0.447388,151.3,-17.966666666666665,6.466666666666666,-18.666666666666668,-89.93333333333334,0.0,-15.4,126.181393527349,33.2632048905884,137.10208,Mavic 2
277,250.0,2023-10-15 17:16:42,33.2626697646357,126.179211534399,-7.605596,-12.974252,-0.447388,150.8,-16.5,13.1,-19.5,-89.9,0.0,-15.4,126.181393527349,33.2632048905884,137.10208,Mavic 2
278,250.0,2023-10-15 17:16:42,33.26266880310177,126.17920953008434,-7.307337333333334,-12.675993333333333,-0.6710820000000001,150.66666666666669,-15.166666666666666,15.5,-19.7,-89.9,0.0,-15.4,126.181393527349,33.2632048905884,137.13256,Mavic 2
279,250.0,2023-10-15 17:16:42,33.26266784156783,126.17920752576967,-7.0090786666666665,-12.377734666666667,-0.894776,150.53333333333333,-13.833333333333334,17.9,-19.900000000000002,-89.9,0.0,-15.4,126.181393527349,33.2632048905884,137.16304,Mavic 2
280,250.0,2023-10-15 17:16:42,33.2626668800339,126.179205521455,-6.71082,-12.079476,-1.11847,150.4,-12.5,20.3,-20.1,-89.9,0.0,-15.4,126.181393527349,33.2632048905884,137.19352,Mavic 2
